[
    {
        "name": "Heliopolis Sporting Club",
        "latitude": 30.088984,
        "longitude": 31.317309,
        "address": "17 El-Marghany, Heliopolis, Cairo.",
        "phonenumber": "+20224170061 +201222970758",
        "directionsurl": "https://goo.gl/maps/oWf2UuBQWqnTj8LQ7"
    },
    {
        "name": "Gezira Sporting Club",
        "latitude": 30.052666,
        "longitude": 31.223163,
        "address": "15 Saray El Gezirah, Zamalek, Cairo.",
        "phonenumber": "+20227356000",
        "directionsurl": "https://goo.gl/maps/XGSG5R9R1noWs3rx6"
    },
    {
        "name": "El Shams Sporting Club",
        "latitude": 30.116214,
        "longitude": 31.345354,
        "address": "Abd El-Hameed Badawi, El Nozha, Cairo.",
        "phonenumber": "+20221802460",
        "directionsurl": "https://goo.gl/maps/GNse7TATK5dBQFYo9"
    },
    {
        "name": "Al Ahly Club Nasr City",
        "latitude": 30.070369,
        "longitude": 31.355282,
        "address": "Hassan Mamoon, Nasr City, Cairo.",
        "phonenumber": "+201111970758",
        "directionsurl": "https://goo.gl/maps/uiTTk5hbX7QAvfyD8"
    },
    {
        "name": "Shooting Club Dokki",
        "latitude": 30.045612,
        "longitude": 31.204183,
        "address": "Dr Michel Bakhoum, Dokki, Giza.",
        "phonenumber": "+20233374559",
        "directionsurl": "https://goo.gl/maps/ZNjLbmKqfUvbXtCD8"
    },
    {
        "name": "Maadi Club",
        "latitude": 29.964057,
        "longitude": 31.263111,
        "address": "Street 87, Maadi, Cairo.",
        "directionsurl": "https://goo.gl/maps/2erRTQvPCkCG9w4d6"
    }
]